[
  {
    "lat": 47.497912,
    "lng": 19.040235,
    "city": "Budapest",
    "country": "Hungary"
  },
  {
    "lat": 52.2296756,
    "lng": 21.0122287,
    "city": "Warsaw",
    "country": "Poland"
  },
  {
    "lat": 48.2081743,
    "lng": 16.3738189,
    "city": "Vienna",
    "country": "Austria"
  },
  {
    "lat": 45.8150108,
    "lng": 15.9819189,
    "city": "Zagreb",
    "country": "Croatia"
  },
  {
    "lat": 46.7712101,
    "lng": 23.6236353,
    "city": "Kolozsvár - Cluj-Napoca",
    "country": "Romania"
  },
  {
    "lat": 41.3275459,
    "lng": 19.8186982,
    "city": "Tirana",
    "country": "Albania"
  },
  {
    "lat": 41.313922,
    "lng": 19.455799,
    "city": "Port of Durres",
    "country": "Albania"
  },
  {
    "lat": 40.7086377,
    "lng": 19.9437314,
    "city": "Berat",
    "country": "Albania"
  },
  {
    "lat": 40.7217547,
    "lng": 19.4712067,
    "city": "Apollonia",
    "country": "Albania"
  },
  {
    "lat": 39.8592119,
    "lng": 20.0271001,
    "city": "Sarandë",
    "country": "Albania"
  },
  {
    "lat": 40.0672874,
    "lng": 20.1045229,
    "city": "Gjirokaster",
    "country": "Albania"
  },
  {
    "lat": 41.5094765,
    "lng": 19.7710732,
    "city": "Krujë District",
    "country": "Albania"
  },
  {
    "lat": 41.9027008,
    "lng": 12.4962352,
    "city": "Metropolitan City of Rome",
    "country": "Italy"
  },
  {
    "lat": 41.902916,
    "lng": 12.453389,
    "city": "Vatican City",
    "country": "Italy"
  },
  {
    "lat": 42.5047926,
    "lng": 27.4626361,
    "city": "Burgas",
    "country": "Bulgaria"
  },
  {
    "lat": 42.6951525,
    "lng": 27.7104213,
    "city": "Sunny Beach",
    "country": "Bulgaria"
  },
  {
    "lat": 41.0082376,
    "lng": 28.9783589,
    "city": "Istanbul",
    "country": "Turkey"
  },
  {
    "lat": 25.2854473,
    "lng": 51.5310398,
    "city": "Doha",
    "country": "Qatar"
  },
  {
    "lat": 52.3702157,
    "lng": 4.8951679,
    "city": "Amsterdam",
    "country": "The Netherlands"
  },
  {
    "lat": 39.6242621,
    "lng": 19.9216777,
    "city": "Corfu",
    "country": "Greece"
  },
  {
    "lat": 38.1753675,
    "lng": 20.5692179,
    "city": "Cephalonia",
    "country": "Greece"
  },
  {
    "lat": 47.85505,
    "lng": 15.31021,
    "city": "Wienerbruck",
    "country": "Austria"
  },
  {
    "lat": 47.7702441,
    "lng": 15.3148765,
    "city": "Mariazell",
    "country": "Austria"
  },
  {
    "lat": 55.6760968,
    "lng": 12.5683372,
    "city": "Copenhagen",
    "country": "Denmark"
  },
  {
    "lat": 55.604981,
    "lng": 13.003822,
    "city": "Malmö",
    "country": "Sweden"
  },
  {
    "lat": 55.7046601,
    "lng": 13.1910073,
    "city": "Lund",
    "country": "Sweden"
  },
  {
    "lat": 55.64191,
    "lng": 12.087845,
    "city": "Roskilde",
    "country": "Denmark"
  },
  {
    "lat": 55.9222478,
    "lng": 12.0700503,
    "city": "Ølsted",
    "country": "Denmark"
  },
  {
    "lat": 55.8867332,
    "lng": 12.5308197,
    "city": "Rungsted Kyst",
    "country": "Denmark"
  },
  {
    "lat": 56.030787,
    "lng": 12.592127,
    "city": "Helsingør",
    "country": "Denmark"
  },
  {
    "lat": 59.9138688,
    "lng": 10.7522454,
    "city": "Oslo",
    "country": "Norway"
  },
  {
    "lat": 60.210484,
    "lng": 11.0670241,
    "city": "Gardermoen",
    "country": "Norway"
  },
  {
    "lat": 59.3293235,
    "lng": 18.0685808,
    "city": "Stockholm",
    "country": "Sweden"
  },
  {
    "lat": 46.3695574,
    "lng": 25.7953655,
    "city": "Csikszereda - Miercurea Ciuc",
    "country": "Romania"
  },
  {
    "lat": 35.7642515,
    "lng": 10.8112885,
    "city": "Monastir",
    "country": "Tunisia"
  },
  {
    "lat": 35.8245029,
    "lng": 10.634584,
    "city": "Sousse",
    "country": "Tunisia"
  },
  {
    "lat": 36.4072574,
    "lng": 10.6224706,
    "city": "Hammamet",
    "country": "Tunisia"
  },
  {
    "lat": 36.8064948,
    "lng": 10.1815316,
    "city": "Tunis",
    "country": "Tunisia"
  },
  {
    "lat": 47.87003,
    "lng": 15.15028,
    "city": "Lackenhof",
    "country": "Austria"
  },
  {
    "lat": 47.9025348,
    "lng": 20.3772284,
    "city": "Eger",
    "country": "Hungary"
  },
  {
    "lat": 47.7772651,
    "lng": 19.9294927,
    "city": "Gyöngyös",
    "country": "Hungary"
  },
  {
    "lat": 47.9495324,
    "lng": 21.7244053,
    "city": "Nyíregyháza",
    "country": "Hungary"
  },
  {
    "lat": 47.5316049,
    "lng": 21.6273124,
    "city": "Debrecen",
    "country": "Hungary"
  },
  {
    "lat": 46.4904848,
    "lng": 19.7366569,
    "city": "Kiskunmajsa",
    "country": "Hungary"
  },
  {
    "lat": 46.8963711,
    "lng": 19.6896861,
    "city": "Kecskemét",
    "country": "Hungary"
  },
  {
    "lat": 46.7842192,
    "lng": 17.6967856,
    "city": "Balatonlelle",
    "country": "Hungary"
  },
  {
    "lat": 46.8056876,
    "lng": 17.7670544,
    "city": "Balatonszemes",
    "country": "Hungary"
  },
  {
    "lat": 46.9090603,
    "lng": 18.0746239,
    "city": "Siófok",
    "country": "Hungary"
  },
  {
    "lat": 47.0317027,
    "lng": 18.0086997,
    "city": "Balatonalmádi",
    "country": "Hungary"
  },
  {
    "lat": 46.8828526,
    "lng": 17.7514452,
    "city": "Balatonakali",
    "country": "Hungary"
  },
  {
    "lat": 46.8750577,
    "lng": 17.685025,
    "city": "Zánka",
    "country": "Hungary"
  },
  {
    "lat": 47.1596861,
    "lng": 18.9385715,
    "city": "Ráckeve",
    "country": "Hungary"
  },
  {
    "lat": 47.905893,
    "lng": 22.7973796,
    "city": "Zajta",
    "country": "Hungary"
  },
  {
    "lat": 60.1698557,
    "lng": 24.9383791,
    "city": "Helsinki",
    "country": "Finland"
  },
  {
    "lat": 50.0755381,
    "lng": 14.4378005,
    "city": "Prague",
    "country": "Czechia"
  },
  {
    "lat": 48.1485965,
    "lng": 17.1077478,
    "city": "Bratislava",
    "country": "Slovakia"
  },
  {
    "lat": 49.9614612,
    "lng": 15.2884001,
    "city": "Sedlec",
    "country": "Czechia"
  },
  {
    "lat": 49.9524314,
    "lng": 15.2686536,
    "city": "Kutna Hora",
    "country": "Czechia"
  },
  {
    "lat": 40.901975,
    "lng": 14.332644,
    "city": "Naples",
    "country": "Italy"
  },
  {
    "lat": 40.7482435,
    "lng": 14.4820746,
    "city": "Pompeii",
    "country": "Italy"
  },
  {
    "lat": 41.3850639,
    "lng": 2.1734035,
    "city": "Barcelona",
    "country": "Spain"
  },
  {
    "lat": 41.5957765,
    "lng": 1.8298142,
    "city": "Montserrat",
    "country": "Spain"
  },
  {
    "lat": 55.594023,
    "lng": 12.660503,
    "city": "Dragør",
    "country": "Denmark"
  },
  {
    "lat": 35.2926492,
    "lng": 25.4330368,
    "city": "Stalida, Crete",
    "country": "Greece"
  },
  {
    "lat": 35.5172013,
    "lng": 23.9254833,
    "city": "Agia Marina, Crete",
    "country": "Greece"
  },
  {
    "lat": 35.9123988,
    "lng": 14.5017677,
    "city": "Sliema",
    "country": "Malta"
  },
  {
    "lat": 35.8992375,
    "lng": 14.5140996,
    "city": "Valletta",
    "country": "Malta"
  },
  {
    "lat": 36.0139773,
    "lng": 14.3228273,
    "city": "Blue Lagoon, Comino",
    "country": "Malta"
  },
  {
    "lat": 36.0258002,
    "lng": 14.2993744,
    "city": "Mgarr Harbour, Gozo",
    "country": "Malta"
  },
  {
    "lat": 36.0447227,
    "lng": 14.2409977,
    "city": "Victoria, Gozo",
    "country": "Malta"
  },
  {
    "lat": 37.566535,
    "lng": 126.9779692,
    "city": "Seoul",
    "country": "Korea"
  },
  {
    "lat": 35.8561719,
    "lng": 129.2247477,
    "city": "Gyeongju-si",
    "country": "Korea"
  },
  {
    "lat": 35.1795543,
    "lng": 129.0756416,
    "city": "Busan",
    "country": "Korea"
  },
  {
    "lat": 37.2635727,
    "lng": 127.0286009,
    "city": "Suwon-si",
    "country": "Korea"
  },
  {
    "lat": 37.2410864,
    "lng": 127.1775537,
    "city": "Yongin-si",
    "country": "Korea"
  },
  {
    "lat": 37.16539,
    "lng": 127.373913,
    "city": "Baegam",
    "country": "Korea"
  },
  {
    "lat": 37.1243489,
    "lng": 127.3483913,
    "city": "Yongcheon-ri, Baegam-myeon",
    "country": "Korea"
  },
  {
    "lat": 36.3504119,
    "lng": 127.3845475,
    "city": "Daejeon",
    "country": "Korea"
  },
  {
    "lat": 38.111329,
    "lng": 128.430862,
    "city": "Seoraksan National Park (Namseorak)",
    "country": "Korea"
  },
  {
    "lat": 38.1499421,
    "lng": 128.607527,
    "city": "Ganghyeon-myeon",
    "country": "Korea"
  },
  {
    "lat": 37.8894944,
    "lng": 126.7401673,
    "city": "Imjingak",
    "country": "Korea"
  },
  {
    "lat": 37.7790591,
    "lng": 126.6868531,
    "city": "Odusan",
    "country": "Korea"
  },
  {
    "lat": 37.9501537,
    "lng": 126.6970825,
    "city": "Panmunjom",
    "country": "Korea"
  },
  {
    "lat": 37.7913541,
    "lng": 127.5255418,
    "city": "Nami Island",
    "country": "Korea"
  },
  {
    "lat": 37.8315403,
    "lng": 127.5098827,
    "city": "Gapyeong",
    "country": "Korea"
  },
  {
    "lat": 37.6152464,
    "lng": 126.7156325,
    "city": "Gimpo",
    "country": "Korea"
  },
  {
    "lat": 37.4562557,
    "lng": 126.7052062,
    "city": "Incheon",
    "country": "Korea"
  },
  {
    "lat": 35.1595454,
    "lng": 126.8526012,
    "city": "Gwangju",
    "country": "Korea"
  },
  {
    "lat": 35.3211394,
    "lng": 126.9881673,
    "city": "Damyang-gun",
    "country": "Korea"
  },
  {
    "lat": 34.7714563,
    "lng": 127.0798944,
    "city": "Boseong-gun",
    "country": "Korea"
  },
  {
    "lat": 35.8242238,
    "lng": 127.1479532,
    "city": "Jeonju-si",
    "country": "Korea"
  },
  {
    "lat": 37.4464338,
    "lng": 126.3726837,
    "city": "Eurwangni Beach",
    "country": "Korea"
  },
  {
    "lat": 37.5392646,
    "lng": 127.2148919,
    "city": "Hanam-si",
    "country": "Korea"
  },
  {
    "lat": 36.4465346,
    "lng": 127.1191534,
    "city": "Gongju-si",
    "country": "Korea"
  },
  {
    "lat": 36.2754406,
    "lng": 126.910178,
    "city": "Buyeo-gun",
    "country": "Korea"
  },
  {
    "lat": 37.5916506,
    "lng": 127.2159169,
    "city": "Deokso-ri",
    "country": "Korea"
  },
  {
    "lat": 37.4171413,
    "lng": 127.2561413,
    "city": "Gwangju-si, Gyeonggi-do",
    "country": "Korea"
  },
  {
    "lat": 37.4912195,
    "lng": 127.4875607,
    "city": "Yangpyeong",
    "country": "Korea"
  },
  {
    "lat": 37.5622124,
    "lng": 127.5518582,
    "city": "Yongmunsan",
    "country": "Korea"
  },
  {
    "lat": 37.471111,
    "lng": 127.182222,
    "city": "Namhansan",
    "country": "Korea"
  },
  {
    "lat": 37.550011,
    "lng": 127.2561815,
    "city": "Paldang-ri",
    "country": "Korea"
  },
  {
    "lat": 25.0329636,
    "lng": 121.5654268,
    "city": "Taipei City",
    "country": "Taiwan"
  },
  {
    "lat": 25.0169826,
    "lng": 121.4627868,
    "city": "New Taipei City",
    "country": "Taiwan"
  },
  {
    "lat": 25.109187,
    "lng": 121.8462979,
    "city": "Jioufen",
    "country": "Taiwan"
  },
  {
    "lat": 25.1196038,
    "lng": 121.8928037,
    "city": "Nanya Rock Formations",
    "country": "Taiwan"
  },
  {
    "lat": 22.6272784,
    "lng": 120.3014353,
    "city": "Kaohsiung City",
    "country": "Taiwan"
  },
  {
    "lat": 35.709026,
    "lng": 139.731992,
    "city": "Tokyo",
    "country": "Japan"
  },
  {
    "lat": 35.83675,
    "lng": 139.580319,
    "city": "Shiki",
    "country": "Japan"
  },
  {
    "lat": 35.443708,
    "lng": 139.638026,
    "city": "Yokohama",
    "country": "Japan"
  },
  {
    "lat": 35.319225,
    "lng": 139.546687,
    "city": "Kamakura",
    "country": "Japan"
  },
  {
    "lat": 36.719903,
    "lng": 139.698216,
    "city": "Nikko",
    "country": "Japan"
  },
  {
    "lat": 36.238038,
    "lng": 137.972034,
    "city": "Matsumoto",
    "country": "Japan"
  },
  {
    "lat": 35.232355,
    "lng": 139.106938,
    "city": "Hakone",
    "country": "Japan"
  },
  {
    "lat": 36.561325,
    "lng": 136.656205,
    "city": "Kanazawa",
    "country": "Japan"
  },
  {
    "lat": 35.181446,
    "lng": 136.906398,
    "city": "Nagoya",
    "country": "Japan"
  },
  {
    "lat": 35.011636,
    "lng": 135.768029,
    "city": "Kyoto",
    "country": "Japan"
  },
  {
    "lat": 34.693738,
    "lng": 135.502165,
    "city": "Osaka",
    "country": "Japan"
  },
  {
    "lat": 34.685087,
    "lng": 135.805,
    "city": "Nara",
    "country": "Japan"
  },
  {
    "lat": 34.690083,
    "lng": 135.195511,
    "city": "Kobe",
    "country": "Japan"
  },
  {
    "lat": 34.385203,
    "lng": 132.455293,
    "city": "Hiroshima",
    "country": "Japan"
  },
  {
    "lat": 34.27966,
    "lng": 132.311404,
    "city": "Miyajima Island",
    "country": "Japan"
  },
  {
    "lat": 26.212312,
    "lng": 127.679157,
    "city": "Naha",
    "country": "Japan"
  },
  {
    "lat": 26.657577,
    "lng": 127.897831,
    "city": "Motobu",
    "country": "Japan"
  },
  {
    "lat": 26.396055,
    "lng": 127.744277,
    "city": "Yomitan",
    "country": "Japan"
  },
  {
    "lat": 26.228892,
    "lng": 127.303157,
    "city": "Zamami",
    "country": "Japan"
  },
  {
    "lat": 24.340661,
    "lng": 124.15558,
    "city": "Ishigaki",
    "country": "Japan"
  },
  {
    "lat": 24.322248,
    "lng": 124.088937,
    "city": "Taketomi Island",
    "country": "Japan"
  },
  {
    "lat": 24.330061,
    "lng": 123.818798,
    "city": "Iriomote-jima",
    "country": "Japan"
  },
  {
    "lat": 34.172562,
    "lng": 134.608786,
    "city": "Naruto",
    "country": "Japan"
  },
  {
    "lat": 34.07027,
    "lng": 134.554844,
    "city": "Tokushima",
    "country": "Japan"
  },
  {
    "lat": 33.559587,
    "lng": 133.529279,
    "city": "Kochi",
    "country": "Japan"
  },
  {
    "lat": 34.342788,
    "lng": 134.046574,
    "city": "Takamatsu",
    "country": "Japan"
  },
  {
    "lat": 34.191417,
    "lng": 133.823303,
    "city": "Kotohira",
    "country": "Japan"
  },
  {
    "lat": 33.839157,
    "lng": 132.765575,
    "city": "Matsuyama",
    "country": "Japan"
  },
  {
    "lat": 33.749262,
    "lng": 132.792228,
    "city": "Tobe",
    "country": "Japan"
  },
  {
    "lat": 34.066098,
    "lng": 132.99786,
    "city": "Imabari",
    "country": "Japan"
  },
  {
    "lat": 34.815149,
    "lng": 134.6853528,
    "city": "Himeji",
    "country": "Japan"
  },
  {
    "lat": 34.8844606,
    "lng": 135.7998544,
    "city": "Uji",
    "country": "Japan"
  },
  {
    "lat": 34.6551456,
    "lng": 133.9195019,
    "city": "Okayama",
    "country": "Japan"
  },
  {
    "lat": 34.5850134,
    "lng": 133.7720841,
    "city": "Kurashiki",
    "country": "Japan"
  },
  {
    "lat": 35.513828,
    "lng": 24.018038,
    "city": "Chania, Crete",
    "country": "Greece"
  },
  {
    "lat": 37.9838,
    "lng": 23.7275,
    "city": "Athens",
    "country": "Greece"
  }
]
